[{"GalleryID":51,"GalleryName":"Albright-Knox Art Gallery","GalleryNativeName":"Albright-Knox Art Gallery","GalleryCity":"Buffalo","GalleryAddress":"1285 Elmwood Ave","GalleryCountry":"USA","Latitude":42.932078,"Longitude":-78.877072,"GalleryWebSite":"http://www.albrightknox.org/","FlickrPlaceID":"dLCnqMtUV7L6BRUi6g","YahooWoeID":55806539,"GooglePlaceID":"ChIJe6SdptAS04kRzppu7BanDfk"},{"GalleryID":18,"GalleryName":"Art History Museum (Vienna)","GalleryNativeName":"Kunsthistorisches Museum","GalleryCity":"Vienna","GalleryAddress":"Maria-Theresien-Platz, 1010","GalleryCountry":"Austria","Latitude":48.2037,"Longitude":16.3614,"GalleryWebSite":"http://www.khm.at/","FlickrPlaceID":"GmGVGDJUV7vR.KE","YahooWoeID":551756,"GooglePlaceID":"ChIJ8XfPY5oHbUcRQbimbLVSYG8"},{"GalleryID":37,"GalleryName":"Barnes Foundation","GalleryNativeName":"Barnes Foundation","GalleryCity":"Philadelphia","GalleryAddress":"2025 Benjamin Franklin Pkwy","GalleryCountry":"USA","Latitude":39.960659,"Longitude":-75.172523,"GalleryWebSite":"http://www.barnesfoundation.org/","FlickrPlaceID":"y3CJNJRTW7m785fi2A","YahooWoeID":29389142,"GooglePlaceID":"ChIJrcsBU8vHxokR4FXP2BplJks"},{"GalleryID":22,"GalleryName":"Belvedere Gallery","GalleryNativeName":"Österreichische Galerie Belvedere","GalleryCity":"Vienna","GalleryAddress":"Schloss Belvedere, Prinz Eugen-Stra├ƒe 27, 1030","GalleryCountry":"Austria","Latitude":48.19138,"Longitude":16.38,"GalleryWebSite":"http://www.belvedere.at/","FlickrPlaceID":"wVuFk_FUV7sGJng","YahooWoeID":551795,"GooglePlaceID":"ChIJpZ4LAn0HbUcRMNCmNwlXeN8"},{"GalleryID":81,"GalleryName":"Brera Art Gallery","GalleryNativeName":"Pinacoteca di Brera","GalleryCity":"Milan","GalleryAddress":"Via Brera, 28, 20121","GalleryCountry":"Italy","Latitude":45.471944,"Longitude":9.188056,"GalleryWebSite":"http://www.brera.beniculturali.it/","FlickrPlaceID":"49Gidk1WU7JxrFY","YahooWoeID":718345,"GooglePlaceID":"ChIJH05-WBHuhkcRNjexLI56Nhs"},{"GalleryID":42,"GalleryName":"Brooklyn Museum","GalleryNativeName":"Brooklyn Museum","GalleryCity":"New York","GalleryAddress":"200 Eastern Pkwy","GalleryCountry":"USA","Latitude":40.671306,"Longitude":-73.96375,"GalleryWebSite":"http://www.brooklynmuseum.org/","FlickrPlaceID":"9R6NtodTWr2le.Hw.A","YahooWoeID":28751453,"GooglePlaceID":"ChIJyTmcRApbwokR-oXJRqpVI8Y"},{"GalleryID":52,"GalleryName":"Detroit Institute of Arts","GalleryNativeName":"Detroit Institute of Arts","GalleryCity":"Detroit","GalleryAddress":"5200 Woodward Ave","GalleryCountry":"USA","Latitude":42.359292,"Longitude":-83.064797,"GalleryWebSite":"http://www.dia.org/","FlickrPlaceID":"aLB8_gVUVLt45Q4MaQ","YahooWoeID":56192713,"GooglePlaceID":"ChIJO6USub3SJIgRshN1AKZBH20"},{"GalleryID":24,"GalleryName":"Hermitage Museum","GalleryNativeName":"Hermitage Museum","GalleryCity":"St. Petersburg","GalleryAddress":"Palace Square, 2","GalleryCountry":"Russia","Latitude":59.941,"Longitude":30.3129,"GalleryWebSite":"http://www.hermitagemuseum.org/","FlickrPlaceID":"BfjabGxYUrw0knsYVA","YahooWoeID":90600519,"GooglePlaceID":"ChIJ6eLLMgsxlkYR_F1QoCoDTgc"},{"GalleryID":70,"GalleryName":"Indianapolis Museum of Art","GalleryNativeName":"Indianapolis Museum of Art","GalleryCity":"Indianapolis","GalleryAddress":"4000 Michigan Rd","GalleryCountry":"USA","Latitude":39.8259,"Longitude":-86.1855,"GalleryWebSite":"http://www.imamuseum.org/","FlickrPlaceID":"42QAS0hTV7j9Fq9a","YahooWoeID":2523727,"GooglePlaceID":"ChIJJYnup7pWa4gRheOf5vIg2JE"},{"GalleryID":27,"GalleryName":"J. Paul Getty Museum","GalleryNativeName":"J. Paul Getty Museum","GalleryCity":"Los Angeles","GalleryAddress":"1200 Getty Center Dr","GalleryCountry":"USA","Latitude":34.0775,"Longitude":-118.475,"GalleryWebSite":"http://www.getty.edu/museum/","FlickrPlaceID":"6A92XzRTWr3WXDwJwQ","YahooWoeID":28751324,"GooglePlaceID":"ChIJpbxvgcW8woARza8I4QhFyyY"},{"GalleryID":82,"GalleryName":"Leopold Museum","GalleryNativeName":"Leopold Museum","GalleryCity":"Vienna","GalleryAddress":"Museumsplatz 1, A 1070","GalleryCountry":"Austria","Latitude":48.202635,"Longitude":16.359088,"GalleryWebSite":"https://www.leopoldmuseum.org","FlickrPlaceID":"vyIUe41UV7uao.Y","YahooWoeID":551801,"GooglePlaceID":"ChIJAzFFGJAHbUcROmKaJWvcKyE"},{"GalleryID":16,"GalleryName":"Louvre Museum","GalleryNativeName":"Musée du Louvre","GalleryCity":"Paris","GalleryAddress":"Rue de Rivoli, 75001","GalleryCountry":"France","Latitude":48.8611,"Longitude":2.33638,"GalleryWebSite":"http://www.louvre.fr/","FlickrPlaceID":"36CFHdZUV7KNOKK4LQ","YahooWoeID":55843752,"GooglePlaceID":"ChIJ8XJ_6CVu5kcRWP1XT9TkBt4"},{"GalleryID":6,"GalleryName":"Metropolitan Museum of Art","GalleryNativeName":"Metropolitan Museum of Art","GalleryCity":"New York City","GalleryAddress":"1000 5th Ave","GalleryCountry":"USA","Latitude":40.7794472,"Longitude":-73.963111,"GalleryWebSite":"http://www.metmuseum.org","FlickrPlaceID":"zzA0hmBTUb9GY797pA","YahooWoeID":23511893,"GooglePlaceID":"ChIJb8Jg9pZYwokR-qHGtvSkLzs"},{"GalleryID":19,"GalleryName":"Musee d'Orsay","GalleryNativeName":"Musée d'Orsay","GalleryCity":"Paris","GalleryAddress":"1 Rue de la Légion d'Honneur","GalleryCountry":"France","Latitude":48.86,"Longitude":2.327,"GalleryWebSite":"http://www.musee-orsay.fr/","FlickrPlaceID":".jdUillUV7Kt1uHqAg","YahooWoeID":55843777,"GooglePlaceID":"ChIJG5Qwtitu5kcR2CNEsYy9cdA"},{"GalleryID":34,"GalleryName":"Musee du Petit Palais","GalleryNativeName":"Petit Palais","GalleryCity":"Paris","GalleryAddress":"Avenue Winston Churchill, 75008","GalleryCountry":"France","Latitude":48.866084,"Longitude":2.314759,"GalleryWebSite":"http://www.parismusees.paris.fr/","FlickrPlaceID":"a5KHUTVUVL6wFRTYsQ","YahooWoeID":56448116,"GooglePlaceID":"ChIJSUOPztFv5kcRnEbSPYG-9fM"},{"GalleryID":49,"GalleryName":"Museum of Fine Arts","GalleryNativeName":"Museum of Fine Arts","GalleryCity":"Boston","GalleryAddress":"465 Huntington Ave","GalleryCountry":"USA","Latitude":42.339167,"Longitude":-71.094167,"GalleryWebSite":"http://www.mfa.org/","FlickrPlaceID":"c1_W2UJUVL.DGU.MbQ","YahooWoeID":56574533,"GooglePlaceID":"ChIJS3rn5w1644kRZNWVxNY_Ay8"},{"GalleryID":20,"GalleryName":"Museum of Modern Art","GalleryNativeName":"Museum of Modern Art","GalleryCity":"New York","GalleryAddress":"11 W 53rd St","GalleryCountry":"USA","Latitude":40.761484,"Longitude":-73.977664,"GalleryWebSite":"http://www.moma.org/","FlickrPlaceID":"byMt1GpTWrhtqOpahg","YahooWoeID":28288823,"GooglePlaceID":"ChIJKxDbe_lYwokRVf__s8CPn-o"},{"GalleryID":5,"GalleryName":"National Gallery","GalleryNativeName":"National Gallery","GalleryCity":"London","GalleryAddress":"Trafalgar Square","GalleryCountry":"UK","Latitude":51.5086,"Longitude":-0.1283,"GalleryWebSite":"http://www.nationalgallery.org.uk/","FlickrPlaceID":"1EPGyGtTUrrDXJmGCA","YahooWoeID":20094364,"GooglePlaceID":"ChIJeclqF84EdkgRtKAjTmWFr0I"},{"GalleryID":7,"GalleryName":"National Gallery of Art","GalleryNativeName":"National Gallery of Art","GalleryCity":"Washington, DC","GalleryAddress":"6th & Constitution Ave NW","GalleryCountry":"USA","Latitude":38.89147,"Longitude":-77.02001,"GalleryWebSite":"http://www.nga.gov/content/ngaweb.html","FlickrPlaceID":"i0jd9gJTWr3c.68Wbg","YahooWoeID":28751392,"GooglePlaceID":"ChIJSYxSO5u3t4kRm4eyKw_Y7Kg"},{"GalleryID":28,"GalleryName":"National Gallery of Norway","GalleryNativeName":"Nationalgalleriet","GalleryCity":"Oslo","GalleryAddress":"Universitetsgata 13, 0164","GalleryCountry":"Norway","Latitude":59.9162,"Longitude":10.7375,"GalleryWebSite":"http://www.nasjonalmuseet.no/","FlickrPlaceID":"lQQM7sZZVL.Hngs","YahooWoeID":865764,"GooglePlaceID":"ChIJOdGZU3xuQUYRRpZUX1Z3YUM"},{"GalleryID":50,"GalleryName":"National Gallery of Scotland","GalleryNativeName":"National Gallery of Scotland","GalleryCity":"Edinburgh","GalleryAddress":"The Mound","GalleryCountry":"Scotland","Latitude":55.950917,"Longitude":-3.195667,"GalleryWebSite":"http://www.nationalgalleries.org/","FlickrPlaceID":"AtPXsOpTUrrN5fImVw","YahooWoeID":20094252,"GooglePlaceID":"ChIJ68bm6kjGh0gRkyF0XlT5Rww"},{"GalleryID":43,"GalleryName":"Old Masters Gallery","GalleryNativeName":"Gemäldegalerie Alte Meister","GalleryCity":"Dresden","GalleryAddress":"Theaterplatz 1, 01067","GalleryCountry":"Germany","Latitude":51.053611,"Longitude":13.734722,"GalleryWebSite":"http://www.skd.museum/","FlickrPlaceID":"fr.j5iRTVLL4Bs4Wag","YahooWoeID":26822156,"GooglePlaceID":"ChIJE6ZpuWjPCUcR0dN6tE-_u6o"},{"GalleryID":13,"GalleryName":"Philadelphia Museum of Art","GalleryNativeName":"Philadelphia Museum of Art","GalleryCity":"Philadelphia","GalleryAddress":"2600 Benjamin Franklin Pkwy","GalleryCountry":"USA","Latitude":39.966,"Longitude":-75.181,"GalleryWebSite":"http://www.philamuseum.org/","FlickrPlaceID":"xDQDYKNTVrp.RmQV","YahooWoeID":2401619,"GooglePlaceID":"ChIJ_5CoRebFxokR08ApAyF2KIs"},{"GalleryID":41,"GalleryName":"Picture Gallery (Berlin)","GalleryNativeName":"Gemäldegalerie","GalleryCity":"Berlin","GalleryAddress":"Matthäikirchplatz, 10785","GalleryCountry":"Germany","Latitude":52.508472,"Longitude":13.365417,"GalleryWebSite":"http://www.smb.museum/","FlickrPlaceID":"VULyzjBXVb89VXc","YahooWoeID":675695,"GooglePlaceID":"ChIJveOIOrRRqEcRIsZHHE5dQxA"},{"GalleryID":2,"GalleryName":"Prado Museum","GalleryNativeName":"Museo del Prado","GalleryCity":"Madrid","GalleryAddress":"Paseo del Prado, s/n, 28014","GalleryCountry":"Spain","Latitude":40.413393,"Longitude":-3.691953,"GalleryWebSite":"http://www.museodelprado.es/","FlickrPlaceID":"XrSazRhTUrh4j1shyQ","YahooWoeID":20219885,"GooglePlaceID":"ChIJ7aLYZp0oQg0RWoitk33wlBA"},{"GalleryID":30,"GalleryName":"Rijksmuseum","GalleryNativeName":"Rijksmuseum","GalleryCity":"Amsterdam","GalleryAddress":"Museumstraat 1, 1071 XX","GalleryCountry":"Netherlands","Latitude":52.36,"Longitude":4.885278,"GalleryWebSite":"http://www.rijksmuseum.nl/","FlickrPlaceID":"xfcEFYhWULKtjYI","YahooWoeID":728410,"GooglePlaceID":"ChIJ5Ra7we4JxkcRhYVAaq5zQ9U"},{"GalleryID":32,"GalleryName":"Royal Picture Gallery Mauritshuis","GalleryNativeName":"Royal Picture Gallery Mauritshuis","GalleryCity":"The Hague","GalleryAddress":"Plein 29, 2511 CS Den Haag","GalleryCountry":"Netherlands","Latitude":52.080556,"Longitude":4.314444,"GalleryWebSite":"http://www.mauritshuis.nl/","FlickrPlaceID":"gycEsvZWUbkGyFQ","YahooWoeID":733553,"GooglePlaceID":"ChIJEa9zVSO3xUcRXKUtUE5Qgbk"},{"GalleryID":38,"GalleryName":"Sistine Chapel","GalleryNativeName":"Sistine Chapel","GalleryCity":"Rome","GalleryAddress":"00120, Vatican City","GalleryCountry":"Italy","Latitude":41.903056,"Longitude":12.454444,"GalleryWebSite":"http://mv.vatican.va/","FlickrPlaceID":"xfftaFtTUb6gXRUjTg","YahooWoeID":23424986,"GooglePlaceID":"ChIJ268jxWVgLxMRIj61f4fIFqs"},{"GalleryID":35,"GalleryName":"Solomon R. Guggenheim Museum","GalleryNativeName":"Solomon R. Guggenheim Museum","GalleryCity":"New York","GalleryAddress":"1071 5th Ave","GalleryCountry":"USA","Latitude":40.782975,"Longitude":-73.958992,"GalleryWebSite":"http://www.guggenheim.org/new-york","FlickrPlaceID":"1AJK9adTWr3qYGsuLA","YahooWoeID":28751193,"GooglePlaceID":"ChIJmZ5emqJYwokRuDz79o0coAQ"},{"GalleryID":3,"GalleryName":"State Museum","GalleryNativeName":"Staatliche Museen","GalleryCity":"Berlin","GalleryAddress":"Genthiner Str. 38 D","GalleryCountry":"Germany","Latitude":52.50861,"Longitude":13.36472,"GalleryWebSite":"http://www.smb.museum/","FlickrPlaceID":"VULyzjBXVb89VXc","YahooWoeID":675695,"GooglePlaceID":"ChIJ6c-eGLRRqEcR_S0RGNMMbWw"},{"GalleryID":17,"GalleryName":"Tate Britain","GalleryNativeName":"Tate Britain","GalleryCity":"London","GalleryAddress":"Millbank, Westminster","GalleryCountry":"UK","Latitude":51.490833,"Longitude":-0.127222,"GalleryWebSite":"http://www.tate.org.uk/visit/tate-britain","FlickrPlaceID":"BjVxeKdVU7z_Fw","YahooWoeID":41676,"GooglePlaceID":"ChIJvWjCxekEdkgRoCgQVJHZH_U"},{"GalleryID":11,"GalleryName":"The Art Institute of Chicago","GalleryNativeName":"The Art Institute of Chicago","GalleryCity":"Chicago","GalleryAddress":"111 S Michigan Ave","GalleryCountry":"USA","Latitude":41.8794444,"Longitude":-87.62388,"GalleryWebSite":"http://www.artic.edu/","FlickrPlaceID":"S7hSKqFTVr6exT4J","YahooWoeID":2441891,"GooglePlaceID":"ChIJlUbZ4qMsDogR3tCinMzzKUg"},{"GalleryID":36,"GalleryName":"The Courtauld Institute of Art","GalleryNativeName":"The Courtauld Institute of Art","GalleryCity":"London","GalleryAddress":"Strand","GalleryCountry":"UK","Latitude":51.510833,"Longitude":-0.117222,"GalleryWebSite":"http://www.courtauld.ac.uk/","FlickrPlaceID":"AZPsrPxTUbyolQ","YahooWoeID":23636,"GooglePlaceID":"ChIJvZhvcMoEdkgRB5qnzGs_VNw"},{"GalleryID":4,"GalleryName":"Uffizi Museum","GalleryNativeName":"Galleria degli Uffizi","GalleryCity":"Florence","GalleryAddress":"Piazzale degli Uffizi, 6, 50122","GalleryCountry":"Italy","Latitude":43.76863888,"Longitude":11.25521,"GalleryWebSite":"http://www.polomuseale.firenze.it/en/musei/?m=uffizi","FlickrPlaceID":"GKD_20BTUrvaoc1jyA","YahooWoeID":20150278,"GooglePlaceID":"ChIJgZDFjQBUKhMRzcTwm8i33s0"},{"GalleryID":29,"GalleryName":"Van Gogh Museum","GalleryNativeName":"Van Gogh Museum","GalleryCity":"Amsterdam","GalleryAddress":"Museumplein 6, 1071 DJ","GalleryCountry":"Netherlands","Latitude":52.358417,"Longitude":4.881083,"GalleryWebSite":"http://www.vangoghmuseum.nl/","FlickrPlaceID":"xfcEFYhWULKtjYI","YahooWoeID":728410,"GooglePlaceID":"ChIJX1rTlu8JxkcRGsV8-a4oKMI"}]
